[
  {
    "id": "70159",
    "platform_name": "Copley & West",
    "longitude": -71.064545,
    "latitude": 42.353214,
    "parent_station": "place-boyls",
    "name": "Boylston",
    "platform_colors": [
      "00843D"
    ],
    "station_colors": [
      "00843D"
    ]
  },
  {
    "id": "70102",
    "platform_name": "Alewife",
    "longitude": -71.005409,
    "latitude": 42.251809,
    "parent_station": "place-qnctr",
    "name": "Quincy Center",
    "platform_colors": [
      "DA291C"
    ],
    "station_colors": [
      "DA291C"
    ]
  },
  {
    "id": "70233",
    "platform_name": "Cleveland Circle",
    "longitude": -71.141753,
    "latitude": 42.337807,
    "parent_station": "place-denrd",
    "name": "Dean Road",
    "platform_colors": [
      "00843D"
    ],
    "station_colors": [
      "00843D"
    ]
  },
  {
    "id": "70155",
    "platform_name": "Kenmore & West, Heath Street",
    "longitude": -71.077376,
    "latitude": 42.350126,
    "parent_station": "place-coecl",
    "name": "Copley",
    "platform_colors": [
      "00843D"
    ],
    "station_colors": [
      "00843D"
    ]
  },
  {
    "id": "70096",
    "platform_name": "Alewife (from Braintree)",
    "longitude": -71.052215,
    "latitude": 42.320434,
    "parent_station": "place-jfk",
    "name": "JFK/UMass",
    "platform_colors": [
      "DA291C"
    ],
    "station_colors": [
      "DA291C"
    ]
  },
  {
    "id": "70144",
    "platform_name": "Park Street & North",
    "longitude": -71.106902,
    "latitude": 42.350013,
    "parent_station": "place-bucen",
    "name": "Boston University Central",
    "platform_colors": [
      "00843D"
    ],
    "station_colors": [
      "00843D"
    ]
  },
  {
    "id": "70268",
    "platform_name": "Ashmont",
    "longitude": -71.067289,
    "latitude": 42.270308,
    "parent_station": "place-miltt",
    "name": "Milton",
    "platform_colors": [
      "DA291C"
    ],
    "station_colors": [
      "DA291C"
    ]
  },
  {
    "id": "70218",
    "platform_name": "Park Street & North",
    "longitude": -71.117498,
    "latitude": 42.343118,
    "parent_station": "place-stpul",
    "name": "Saint Paul Street",
    "platform_colors": [
      "00843D"
    ],
    "station_colors": [
      "00843D"
    ]
  },
  {
    "id": "70242",
    "platform_name": "Park Street & North",
    "longitude": -71.085056,
    "latitude": 42.342687,
    "parent_station": "place-symcl",
    "name": "Symphony",
    "platform_colors": [
      "00843D"
    ],
    "station_colors": [
      "00843D"
    ]
  },
  {
    "id": "70090",
    "platform_name": "Alewife",
    "longitude": -71.061945,
    "latitude": 42.299935,
    "parent_station": "place-fldcr",
    "name": "Fields Corner",
    "platform_colors": [
      "DA291C"
    ],
    "station_colors": [
      "DA291C"
    ]
  },
  {
    "id": "70129",
    "platform_name": "Boston College",
    "longitude": -71.134305,
    "latitude": 42.348919,
    "parent_station": "place-grigg",
    "name": "Griggs Street",
    "platform_colors": [
      "00843D"
    ],
    "station_colors": [
      "00843D"
    ]
  },
  {
    "id": "70025",
    "platform_name": "Oak Grove",
    "longitude": -71.05829,
    "latitude": 42.363021,
    "parent_station": "place-haecl",
    "name": "Haymarket",
    "platform_colors": [
      "ED8B00"
    ],
    "station_colors": [
      "ED8B00",
      "00843D"
    ]
  },
  {
    "id": "70112",
    "platform_name": "Park Street & North",
    "longitude": -71.152526,
    "latitude": 42.33873,
    "parent_station": "place-chill",
    "name": "Chestnut Hill Avenue",
    "platform_colors": [
      "00843D"
    ],
    "station_colors": [
      "00843D"
    ]
  },
  {
    "id": "70176",
    "platform_name": "Park Street & North",
    "longitude": -71.140112,
    "latitude": 42.335625,
    "parent_station": "place-bcnfd",
    "name": "Beaconsfield",
    "platform_colors": [
      "00843D"
    ],
    "station_colors": [
      "00843D"
    ]
  },
  {
    "id": "70078",
    "platform_name": "Alewife",
    "longitude": -71.060225,
    "latitude": 42.355518,
    "parent_station": "place-dwnxg",
    "name": "Downtown Crossing",
    "platform_colors": [
      "DA291C"
    ],
    "station_colors": [
      "DA291C",
      "ED8B00"
    ]
  },
  {
    "id": "70150",
    "platform_name": "Park Street & North",
    "longitude": -71.095169,
    "latitude": 42.348949,
    "parent_station": "place-kencl",
    "name": "Kenmore",
    "platform_colors": [
      "00843D"
    ],
    "station_colors": [
      "00843D"
    ]
  },
  {
    "id": "70202",
    "platform_name": "Copley & West",
    "longitude": -71.059215,
    "latitude": 42.359705,
    "parent_station": "place-gover",
    "name": "Government Center",
    "platform_colors": [
      "00843D"
    ],
    "station_colors": [
      "00843D",
      "003DA5"
    ]
  },
  {
    "id": "70038",
    "platform_name": "Wonderland",
    "longitude": -71.062037,
    "latitude": 42.361365,
    "parent_station": "place-bomnl",
    "name": "Bowdoin",
    "platform_colors": [
      "003DA5"
    ],
    "station_colors": [
      "003DA5"
    ]
  },
  {
    "id": "70235",
    "platform_name": "Cleveland Circle",
    "longitude": -71.145867,
    "latitude": 42.336964,
    "parent_station": "place-engav",
    "name": "Englewood Avenue",
    "platform_colors": [
      "00843D"
    ],
    "station_colors": [
      "00843D"
    ]
  },
  {
    "id": "70160",
    "platform_name": "Park Street & North",
    "longitude": -71.252256,
    "latitude": 42.337317,
    "parent_station": "place-river",
    "name": "Riverside",
    "platform_colors": [
      "00843D"
    ],
    "station_colors": [
      "00843D"
    ]
  },
  {
    "id": "70276",
    "platform_name": "Ashmont",
    "longitude": -71.092233,
    "latitude": 42.267559,
    "parent_station": "place-matt",
    "name": "Mattapan",
    "platform_colors": [
      "DA291C"
    ],
    "station_colors": [
      "DA291C"
    ]
  },
  {
    "id": "70162",
    "platform_name": "Park Street & North",
    "longitude": -71.243055,
    "latitude": 42.332703,
    "parent_station": "place-woodl",
    "name": "Woodland",
    "platform_colors": [
      "00843D"
    ],
    "station_colors": [
      "00843D"
    ]
  },
  {
    "id": "70030",
    "platform_name": "Forest Hills",
    "longitude": -71.076994,
    "latitude": 42.383975,
    "parent_station": "place-sull",
    "name": "Sullivan Square",
    "platform_colors": [
      "ED8B00"
    ],
    "station_colors": [
      "ED8B00"
    ]
  },
  {
    "id": "70243",
    "platform_name": "Heath Street",
    "longitude": -71.09021,
    "latitude": 42.339897,
    "parent_station": "place-nuniv",
    "name": "Northeastern University",
    "platform_colors": [
      "00843D"
    ],
    "station_colors": [
      "00843D"
    ]
  },
  {
    "id": "70275",
    "platform_name": "Exit Only",
    "longitude": -71.092389,
    "latitude": 42.267625,
    "parent_station": "place-matt",
    "name": "Mattapan",
    "platform_colors": [
      "DA291C"
    ],
    "station_colors": [
      "DA291C"
    ]
  },
  {
    "id": "70196",
    "platform_name": "Boston College",
    "longitude": -71.062424,
    "latitude": 42.356395,
    "parent_station": "place-pktrm",
    "name": "Park Street",
    "platform_colors": [
      "00843D"
    ],
    "station_colors": [
      "00843D",
      "DA291C"
    ]
  },
  {
    "id": "70087",
    "platform_name": "Ashmont",
    "longitude": -71.053678,
    "latitude": 42.310603,
    "parent_station": "place-shmnl",
    "name": "Savin Hill",
    "platform_colors": [
      "DA291C"
    ],
    "station_colors": [
      "DA291C"
    ]
  },
  {
    "id": "70272",
    "platform_name": "Ashmont",
    "longitude": -71.081343,
    "latitude": 42.268347,
    "parent_station": "place-valrd",
    "name": "Valley Road",
    "platform_colors": [
      "DA291C"
    ],
    "station_colors": [
      "DA291C"
    ]
  },
  {
    "id": "70511",
    "platform_name": "Medford/Tufts",
    "longitude": -71.11728,
    "latitude": 42.408306,
    "parent_station": "place-mdftf",
    "name": "Medford/Tufts",
    "platform_colors": [
      "00843D"
    ],
    "station_colors": [
      "00843D"
    ]
  },
  {
    "id": "70164",
    "platform_name": "Park Street & North",
    "longitude": -71.230476,
    "latitude": 42.325695,
    "parent_station": "place-waban",
    "name": "Waban",
    "platform_colors": [
      "00843D"
    ],
    "station_colors": [
      "00843D"
    ]
  },
  {
    "id": "170140",
    "platform_name": "Park Street & North",
    "longitude": -71.114318,
    "latitude": 42.350901,
    "parent_station": "place-amory",
    "name": "Amory Street",
    "platform_colors": [
      "00843D"
    ],
    "station_colors": [
      "00843D"
    ]
  },
  {
    "id": "70050",
    "platform_name": "Wonderland",
    "longitude": -71.022783,
    "latitude": 42.379671,
    "parent_station": "place-wimnl",
    "name": "Wood Island",
    "platform_colors": [
      "003DA5"
    ],
    "station_colors": [
      "003DA5"
    ]
  },
  {
    "id": "70175",
    "platform_name": "Riverside",
    "longitude": -71.148601,
    "latitude": 42.335163,
    "parent_station": "place-rsmnl",
    "name": "Reservoir",
    "platform_colors": [
      "00843D"
    ],
    "station_colors": [
      "00843D"
    ]
  },
  {
    "id": "70028",
    "platform_name": "Forest Hills",
    "longitude": -71.069533,
    "latitude": 42.373622,
    "parent_station": "place-ccmnl",
    "name": "Community College",
    "platform_colors": [
      "ED8B00"
    ],
    "station_colors": [
      "ED8B00"
    ]
  },
  {
    "id": "70019",
    "platform_name": "Oak Grove",
    "longitude": -71.062752,
    "latitude": 42.352547,
    "parent_station": "place-chncl",
    "name": "Chinatown",
    "platform_colors": [
      "ED8B00"
    ],
    "station_colors": [
      "ED8B00"
    ]
  },
  {
    "id": "70149",
    "platform_name": "Boston College",
    "longitude": -71.100213,
    "latitude": 42.349276,
    "parent_station": "place-bland",
    "name": "Blandford Street",
    "platform_colors": [
      "00843D"
    ],
    "station_colors": [
      "00843D"
    ]
  },
  {
    "id": "70053",
    "platform_name": "Bowdoin",
    "longitude": -70.997323,
    "latitude": 42.390422,
    "parent_station": "place-sdmnl",
    "name": "Suffolk Downs",
    "platform_colors": [
      "003DA5"
    ],
    "station_colors": [
      "003DA5"
    ]
  },
  {
    "id": "70105",
    "platform_name": "Red Line",
    "longitude": -71.001645,
    "latitude": 42.207424,
    "parent_station": "place-brntn",
    "name": "Braintree",
    "platform_colors": [
      "DA291C"
    ],
    "station_colors": [
      "DA291C"
    ]
  },
  {
    "id": "70111",
    "platform_name": "Boston College",
    "longitude": -71.157499,
    "latitude": 42.339581,
    "parent_station": "place-sougr",
    "name": "South Street",
    "platform_colors": [
      "00843D"
    ],
    "station_colors": [
      "00843D"
    ]
  },
  {
    "id": "70236",
    "platform_name": "Park Street & North",
    "longitude": -71.145368,
    "latitude": 42.337011,
    "parent_station": "place-engav",
    "name": "Englewood Avenue",
    "platform_colors": [
      "00843D"
    ],
    "station_colors": [
      "00843D"
    ]
  },
  {
    "id": "70153",
    "platform_name": "Kenmore & West",
    "longitude": -71.087903,
    "latitude": 42.347888,
    "parent_station": "place-hymnl",
    "name": "Hynes Convention Center",
    "platform_colors": [
      "00843D"
    ],
    "station_colors": [
      "00843D"
    ]
  },
  {
    "id": "70007",
    "platform_name": "Oak Grove",
    "longitude": -71.099592,
    "latitude": 42.323132,
    "parent_station": "place-jaksn",
    "name": "Jackson Square",
    "platform_colors": [
      "ED8B00"
    ],
    "station_colors": [
      "ED8B00"
    ]
  },
  {
    "id": "70043",
    "platform_name": "Bowdoin",
    "longitude": -71.051652,
    "latitude": 42.359784,
    "parent_station": "place-aqucl",
    "name": "Aquarium",
    "platform_colors": [
      "003DA5"
    ],
    "station_colors": [
      "003DA5"
    ]
  },
  {
    "id": "70070",
    "platform_name": "Alewife",
    "longitude": -71.103554,
    "latitude": 42.365379,
    "parent_station": "place-cntsq",
    "name": "Central",
    "platform_colors": [
      "DA291C"
    ],
    "station_colors": [
      "DA291C"
    ]
  },
  {
    "id": "70058",
    "platform_name": "Wonderland",
    "longitude": -70.992497,
    "latitude": 42.407874,
    "parent_station": "place-rbmnl",
    "name": "Revere Beach",
    "platform_colors": [
      "003DA5"
    ],
    "station_colors": [
      "003DA5"
    ]
  },
  {
    "id": "70270",
    "platform_name": "Ashmont",
    "longitude": -71.073358,
    "latitude": 42.270001,
    "parent_station": "place-cenav",
    "name": "Central Avenue",
    "platform_colors": [
      "DA291C"
    ],
    "station_colors": [
      "DA291C"
    ]
  },
  {
    "id": "70163",
    "platform_name": "Riverside",
    "longitude": -71.243659,
    "latitude": 42.333094,
    "parent_station": "place-woodl",
    "name": "Woodland",
    "platform_colors": [
      "00843D"
    ],
    "station_colors": [
      "00843D"
    ]
  },
  {
    "id": "70098",
    "platform_name": "Alewife",
    "longitude": -71.030144,
    "latitude": 42.275802,
    "parent_station": "place-nqncy",
    "name": "North Quincy",
    "platform_colors": [
      "DA291C"
    ],
    "station_colors": [
      "DA291C"
    ]
  },
  {
    "id": "70002",
    "platform_name": "Forest Hills",
    "longitude": -71.108059,
    "latitude": 42.309832,
    "parent_station": "place-grnst",
    "name": "Green Street",
    "platform_colors": [
      "ED8B00"
    ],
    "station_colors": [
      "ED8B00"
    ]
  },
  {
    "id": "70055",
    "platform_name": "Bowdoin",
    "longitude": -70.992647,
    "latitude": 42.397219,
    "parent_station": "place-bmmnl",
    "name": "Beachmont",
    "platform_colors": [
      "003DA5"
    ],
    "station_colors": [
      "003DA5"
    ]
  },
  {
    "id": "70261",
    "platform_name": "Mattapan Trolley",
    "longitude": -71.063191,
    "latitude": 42.283768,
    "parent_station": "place-asmnl",
    "name": "Ashmont",
    "platform_colors": [
      "DA291C"
    ],
    "station_colors": [
      "DA291C"
    ]
  },
  {
    "id": "70009",
    "platform_name": "Oak Grove",
    "longitude": -71.09604,
    "latitude": 42.33064,
    "parent_station": "place-rcmnl",
    "name": "Roxbury Crossing",
    "platform_colors": [
      "ED8B00"
    ],
    "station_colors": [
      "ED8B00"
    ]
  },
  {
    "id": "70258",
    "platform_name": "Park Street & North",
    "longitude": -71.110931,
    "latitude": 42.329399,
    "parent_station": "place-bckhl",
    "name": "Back of the Hill",
    "platform_colors": [
      "00843D"
    ],
    "station_colors": [
      "00843D"
    ]
  },
  {
    "id": "70107",
    "platform_name": "Exit Only",
    "longitude": -71.166849,
    "latitude": 42.34024,
    "parent_station": "place-lake",
    "name": "Boston College",
    "platform_colors": [
      "00843D"
    ],
    "station_colors": [
      "00843D"
    ]
  },
  {
    "id": "70099",
    "platform_name": "Braintree",
    "longitude": -71.020542,
    "latitude": 42.266762,
    "parent_station": "place-wlsta",
    "name": "Wollaston",
    "platform_colors": [
      "DA291C"
    ],
    "station_colors": [
      "DA291C"
    ]
  },
  {
    "id": "170137",
    "platform_name": "Boston College",
    "longitude": -71.120257,
    "latitude": 42.351695,
    "parent_station": "place-babck",
    "name": "Babcock Street",
    "platform_colors": [
      "00843D"
    ],
    "station_colors": [
      "00843D"
    ]
  },
  {
    "id": "70838",
    "platform_name": "Exit Only",
    "longitude": -71.062037,
    "latitude": 42.361365,
    "parent_station": "place-bomnl",
    "name": "Bowdoin",
    "platform_colors": [
      "003DA5"
    ],
    "station_colors": [
      "003DA5"
    ]
  },
  {
    "id": "70205",
    "platform_name": "Lechmere & North",
    "longitude": -71.060205,
    "latitude": 42.36528,
    "parent_station": "place-north",
    "name": "North Station",
    "platform_colors": [
      "00843D"
    ],
    "station_colors": [
      "00843D",
      "ED8B00"
    ]
  },
  {
    "id": "70045",
    "platform_name": "Bowdoin",
    "longitude": -71.03953,
    "latitude": 42.369119,
    "parent_station": "place-mvbcl",
    "name": "Maverick",
    "platform_colors": [
      "003DA5"
    ],
    "station_colors": [
      "003DA5"
    ]
  },
  {
    "id": "70029",
    "platform_name": "Oak Grove",
    "longitude": -71.069533,
    "latitude": 42.373622,
    "parent_station": "place-ccmnl",
    "name": "Community College",
    "platform_colors": [
      "ED8B00"
    ],
    "station_colors": [
      "ED8B00"
    ]
  },
  {
    "id": "70094",
    "platform_name": "Alewife",
    "longitude": -71.063725,
    "latitude": 42.28453,
    "parent_station": "place-asmnl",
    "name": "Ashmont",
    "platform_colors": [
      "DA291C"
    ],
    "station_colors": [
      "DA291C"
    ]
  },
  {
    "id": "170136",
    "platform_name": "Park Street & North",
    "longitude": -71.119553,
    "latitude": 42.351538,
    "parent_station": "place-babck",
    "name": "Babcock Street",
    "platform_colors": [
      "00843D"
    ],
    "station_colors": [
      "00843D"
    ]
  },
  {
    "id": "70179",
    "platform_name": "Riverside",
    "longitude": -71.127025,
    "latitude": 42.331413,
    "parent_station": "place-brkhl",
    "name": "Brookline Hills",
    "platform_colors": [
      "00843D"
    ],
    "station_colors": [
      "00843D"
    ]
  },
  {
    "id": "70509",
    "platform_name": "Medford/Tufts",
    "longitude": -71.111331,
    "latitude": 42.40038,
    "parent_station": "place-balsq",
    "name": "Ball Square",
    "platform_colors": [
      "00843D"
    ],
    "station_colors": [
      "00843D"
    ]
  },
  {
    "id": "70057",
    "platform_name": "Bowdoin",
    "longitude": -70.992586,
    "latitude": 42.40776,
    "parent_station": "place-rbmnl",
    "name": "Revere Beach",
    "platform_colors": [
      "003DA5"
    ],
    "station_colors": [
      "003DA5"
    ]
  },
  {
    "id": "70278",
    "platform_name": "Forest Hills",
    "longitude": -71.077262,
    "latitude": 42.392331,
    "parent_station": "place-astao",
    "name": "Assembly",
    "platform_colors": [
      "ED8B00"
    ],
    "station_colors": [
      "ED8B00"
    ]
  },
  {
    "id": "70080",
    "platform_name": "Alewife",
    "longitude": -71.055242,
    "latitude": 42.352271,
    "parent_station": "place-sstat",
    "name": "South Station",
    "platform_colors": [
      "DA291C"
    ],
    "station_colors": [
      "DA291C"
    ]
  },
  {
    "id": "70514",
    "platform_name": "Copley & West",
    "longitude": -71.086829,
    "latitude": 42.379624,
    "parent_station": "place-esomr",
    "name": "East Somerville",
    "platform_colors": [
      "00843D"
    ],
    "station_colors": [
      "00843D"
    ]
  },
  {
    "id": "70199",
    "platform_name": "Heath Street",
    "longitude": -71.062424,
    "latitude": 42.356395,
    "parent_station": "place-pktrm",
    "name": "Park Street",
    "platform_colors": [
      "00843D"
    ],
    "station_colors": [
      "00843D",
      "DA291C"
    ]
  },
  {
    "id": "70056",
    "platform_name": "Wonderland",
    "longitude": -70.992551,
    "latitude": 42.397204,
    "parent_station": "place-bmmnl",
    "name": "Beachmont",
    "platform_colors": [
      "003DA5"
    ],
    "station_colors": [
      "003DA5"
    ]
  },
  {
    "id": "70085",
    "platform_name": "Ashmont",
    "longitude": -71.052514,
    "latitude": 42.320632,
    "parent_station": "place-jfk",
    "name": "JFK/UMass",
    "platform_colors": [
      "DA291C"
    ],
    "station_colors": [
      "DA291C"
    ]
  },
  {
    "id": "70197",
    "platform_name": "Cleveland Circle",
    "longitude": -71.062424,
    "latitude": 42.356395,
    "parent_station": "place-pktrm",
    "name": "Park Street",
    "platform_colors": [
      "00843D"
    ],
    "station_colors": [
      "00843D",
      "DA291C"
    ]
  },
  {
    "id": "70071",
    "platform_name": "Ashmont/Braintree",
    "longitude": -71.085605,
    "latitude": 42.362355,
    "parent_station": "place-knncl",
    "name": "Kendall/MIT",
    "platform_colors": [
      "DA291C"
    ],
    "station_colors": [
      "DA291C"
    ]
  },
  {
    "id": "70145",
    "platform_name": "Boston College",
    "longitude": -71.107455,
    "latitude": 42.350148,
    "parent_station": "place-bucen",
    "name": "Boston University Central",
    "platform_colors": [
      "00843D"
    ],
    "station_colors": [
      "00843D"
    ]
  },
  {
    "id": "70271",
    "platform_name": "Mattapan",
    "longitude": -71.081504,
    "latitude": 42.268389,
    "parent_station": "place-valrd",
    "name": "Valley Road",
    "platform_colors": [
      "DA291C"
    ],
    "station_colors": [
      "DA291C"
    ]
  },
  {
    "id": "70512",
    "platform_name": "Copley & West",
    "longitude": -71.117339,
    "latitude": 42.40828,
    "parent_station": "place-mdftf",
    "name": "Medford/Tufts",
    "platform_colors": [
      "00843D"
    ],
    "station_colors": [
      "00843D"
    ]
  },
  {
    "id": "70016",
    "platform_name": "Forest Hills",
    "longitude": -71.063917,
    "latitude": 42.349662,
    "parent_station": "place-tumnl",
    "name": "Tufts Medical Center",
    "platform_colors": [
      "ED8B00"
    ],
    "station_colors": [
      "ED8B00"
    ]
  },
  {
    "id": "70246",
    "platform_name": "Park Street & North",
    "longitude": -71.094682,
    "latitude": 42.338017,
    "parent_station": "place-mfa",
    "name": "Museum of Fine Arts",
    "platform_colors": [
      "00843D"
    ],
    "station_colors": [
      "00843D"
    ]
  },
  {
    "id": "70103",
    "platform_name": "Braintree",
    "longitude": -71.007153,
    "latitude": 42.233391,
    "parent_station": "place-qamnl",
    "name": "Quincy Adams",
    "platform_colors": [
      "DA291C"
    ],
    "station_colors": [
      "DA291C"
    ]
  },
  {
    "id": "70065",
    "platform_name": "Ashmont/Braintree",
    "longitude": -71.119149,
    "latitude": 42.3884,
    "parent_station": "place-portr",
    "name": "Porter",
    "platform_colors": [
      "DA291C"
    ],
    "station_colors": [
      "DA291C"
    ]
  },
  {
    "id": "70167",
    "platform_name": "Riverside",
    "longitude": -71.216949,
    "latitude": 42.319214,
    "parent_station": "place-eliot",
    "name": "Eliot",
    "platform_colors": [
      "00843D"
    ],
    "station_colors": [
      "00843D"
    ]
  },
  {
    "id": "70513",
    "platform_name": "Medford/Tufts",
    "longitude": -71.087032,
    "latitude": 42.379881,
    "parent_station": "place-esomr",
    "name": "East Somerville",
    "platform_colors": [
      "00843D"
    ],
    "station_colors": [
      "00843D"
    ]
  },
  {
    "id": "70146",
    "platform_name": "Park Street & North",
    "longitude": -71.103989,
    "latitude": 42.349659,
    "parent_station": "place-buest",
    "name": "Boston University East",
    "platform_colors": [
      "00843D"
    ],
    "station_colors": [
      "00843D"
    ]
  },
  {
    "id": "70021",
    "platform_name": "Oak Grove",
    "longitude": -71.060225,
    "latitude": 42.355518,
    "parent_station": "place-dwnxg",
    "name": "Downtown Crossing",
    "platform_colors": [
      "ED8B00"
    ],
    "station_colors": [
      "DA291C",
      "ED8B00"
    ]
  },
  {
    "id": "70052",
    "platform_name": "Wonderland",
    "longitude": -71.004767,
    "latitude": 42.386842,
    "parent_station": "place-orhte",
    "name": "Orient Heights",
    "platform_colors": [
      "003DA5"
    ],
    "station_colors": [
      "003DA5"
    ]
  },
  {
    "id": "70260",
    "platform_name": "Green Line",
    "longitude": -71.110252,
    "latitude": 42.328316,
    "parent_station": "place-hsmnl",
    "name": "Heath Street",
    "platform_colors": [
      "00843D"
    ],
    "station_colors": [
      "00843D"
    ]
  },
  {
    "id": "70031",
    "platform_name": "Oak Grove",
    "longitude": -71.076994,
    "latitude": 42.383975,
    "parent_station": "place-sull",
    "name": "Sullivan Square",
    "platform_colors": [
      "ED8B00"
    ],
    "station_colors": [
      "ED8B00"
    ]
  },
  {
    "id": "70079",
    "platform_name": "Ashmont/Braintree",
    "longitude": -71.055242,
    "latitude": 42.352271,
    "parent_station": "place-sstat",
    "name": "South Station",
    "platform_colors": [
      "DA291C"
    ],
    "station_colors": [
      "DA291C"
    ]
  },
  {
    "id": "70172",
    "platform_name": "Park Street & North",
    "longitude": -71.164146,
    "latitude": 42.326799,
    "parent_station": "place-chhil",
    "name": "Chestnut Hill",
    "platform_colors": [
      "00843D"
    ],
    "station_colors": [
      "00843D"
    ]
  },
  {
    "id": "70239",
    "platform_name": "Heath Street",
    "longitude": -71.081696,
    "latitude": 42.34557,
    "parent_station": "place-prmnl",
    "name": "Prudential",
    "platform_colors": [
      "00843D"
    ],
    "station_colors": [
      "00843D"
    ]
  },
  {
    "id": "70266",
    "platform_name": "Ashmont",
    "longitude": -71.062438,
    "latitude": 42.272477,
    "parent_station": "place-butlr",
    "name": "Butler",
    "platform_colors": [
      "DA291C"
    ],
    "station_colors": [
      "DA291C"
    ]
  },
  {
    "id": "70161",
    "platform_name": "Park Street & North",
    "longitude": -71.252236,
    "latitude": 42.337348,
    "parent_station": "place-river",
    "name": "Riverside",
    "platform_colors": [
      "00843D"
    ],
    "station_colors": [
      "00843D"
    ]
  },
  {
    "id": "70219",
    "platform_name": "Cleveland Circle",
    "longitude": -71.120915,
    "latitude": 42.342274,
    "parent_station": "place-cool",
    "name": "Coolidge Corner",
    "platform_colors": [
      "00843D"
    ],
    "station_colors": [
      "00843D"
    ]
  },
  {
    "id": "70213",
    "platform_name": "Cleveland Circle",
    "longitude": -71.111761,
    "latitude": 42.344758,
    "parent_station": "place-hwsst",
    "name": "Hawes Street",
    "platform_colors": [
      "00843D"
    ],
    "station_colors": [
      "00843D"
    ]
  },
  {
    "id": "70225",
    "platform_name": "Cleveland Circle",
    "longitude": -71.128869,
    "latitude": 42.340053,
    "parent_station": "place-bndhl",
    "name": "Brandon Hall",
    "platform_colors": [
      "00843D"
    ],
    "station_colors": [
      "00843D"
    ]
  },
  {
    "id": "70505",
    "platform_name": "Medford/Tufts",
    "longitude": -71.096956,
    "latitude": 42.388043,
    "parent_station": "place-gilmn",
    "name": "Gilman Square",
    "platform_colors": [
      "00843D"
    ],
    "station_colors": [
      "00843D"
    ]
  },
  {
    "id": "70279",
    "platform_name": "Oak Grove",
    "longitude": -71.07718,
    "latitude": 42.392336,
    "parent_station": "place-astao",
    "name": "Assembly",
    "platform_colors": [
      "ED8B00"
    ],
    "station_colors": [
      "ED8B00"
    ]
  },
  {
    "id": "70148",
    "platform_name": "Park Street & North",
    "longitude": -71.099821,
    "latitude": 42.349165,
    "parent_station": "place-bland",
    "name": "Blandford Street",
    "platform_colors": [
      "00843D"
    ],
    "station_colors": [
      "00843D"
    ]
  },
  {
    "id": "70022",
    "platform_name": "Forest Hills",
    "longitude": -71.057598,
    "latitude": 42.358978,
    "parent_station": "place-state",
    "name": "State",
    "platform_colors": [
      "ED8B00"
    ],
    "station_colors": [
      "ED8B00",
      "003DA5"
    ]
  },
  {
    "id": "70086",
    "platform_name": "Alewife (from Ashmont)",
    "longitude": -71.052473,
    "latitude": 42.320637,
    "parent_station": "place-jfk",
    "name": "JFK/UMass",
    "platform_colors": [
      "DA291C"
    ],
    "station_colors": [
      "DA291C"
    ]
  },
  {
    "id": "70147",
    "platform_name": "Boston College",
    "longitude": -71.104657,
    "latitude": 42.349811,
    "parent_station": "place-buest",
    "name": "Boston University East",
    "platform_colors": [
      "00843D"
    ],
    "station_colors": [
      "00843D"
    ]
  },
  {
    "id": "70089",
    "platform_name": "Ashmont",
    "longitude": -71.062021,
    "latitude": 42.299993,
    "parent_station": "place-fldcr",
    "name": "Fields Corner",
    "platform_colors": [
      "DA291C"
    ],
    "station_colors": [
      "DA291C"
    ]
  },
  {
    "id": "70011",
    "platform_name": "Oak Grove",
    "longitude": -71.089635,
    "latitude": 42.336451,
    "parent_station": "place-rugg",
    "name": "Ruggles",
    "platform_colors": [
      "ED8B00"
    ],
    "station_colors": [
      "ED8B00"
    ]
  },
  {
    "id": "70240",
    "platform_name": "Park Street & North",
    "longitude": -71.081696,
    "latitude": 42.34557,
    "parent_station": "place-prmnl",
    "name": "Prudential",
    "platform_colors": [
      "00843D"
    ],
    "station_colors": [
      "00843D"
    ]
  },
  {
    "id": "70040",
    "platform_name": "Wonderland",
    "longitude": -71.059215,
    "latitude": 42.359705,
    "parent_station": "place-gover",
    "name": "Government Center",
    "platform_colors": [
      "003DA5"
    ],
    "station_colors": [
      "00843D",
      "003DA5"
    ]
  },
  {
    "id": "70264",
    "platform_name": "Ashmont",
    "longitude": -71.060381,
    "latitude": 42.279693,
    "parent_station": "place-cedgr",
    "name": "Cedar Grove",
    "platform_colors": [
      "DA291C"
    ],
    "station_colors": [
      "DA291C"
    ]
  },
  {
    "id": "70510",
    "platform_name": "Copley & West",
    "longitude": -71.111207,
    "latitude": 42.400103,
    "parent_station": "place-balsq",
    "name": "Ball Square",
    "platform_colors": [
      "00843D"
    ],
    "station_colors": [
      "00843D"
    ]
  },
  {
    "id": "70254",
    "platform_name": "Park Street & North",
    "longitude": -71.10968,
    "latitude": 42.333092,
    "parent_station": "place-mispk",
    "name": "Mission Park",
    "platform_colors": [
      "00843D"
    ],
    "station_colors": [
      "00843D"
    ]
  },
  {
    "id": "70156",
    "platform_name": "Park Street & North",
    "longitude": -71.070893,
    "latitude": 42.351902,
    "parent_station": "place-armnl",
    "name": "Arlington",
    "platform_colors": [
      "00843D"
    ],
    "station_colors": [
      "00843D"
    ]
  },
  {
    "id": "70245",
    "platform_name": "Heath Street",
    "longitude": -71.09524,
    "latitude": 42.337875,
    "parent_station": "place-mfa",
    "name": "Museum of Fine Arts",
    "platform_colors": [
      "00843D"
    ],
    "station_colors": [
      "00843D"
    ]
  },
  {
    "id": "70151",
    "platform_name": "Cleveland Circle, Riverside",
    "longitude": -71.095169,
    "latitude": 42.348949,
    "parent_station": "place-kencl",
    "name": "Kenmore",
    "platform_colors": [
      "00843D"
    ],
    "station_colors": [
      "00843D"
    ]
  },
  {
    "id": "70204",
    "platform_name": "Copley & West",
    "longitude": -71.05829,
    "latitude": 42.363021,
    "parent_station": "place-haecl",
    "name": "Haymarket",
    "platform_colors": [
      "00843D"
    ],
    "station_colors": [
      "ED8B00",
      "00843D"
    ]
  },
  {
    "id": "70187",
    "platform_name": "Riverside",
    "longitude": -71.104968,
    "latitude": 42.345029,
    "parent_station": "place-fenwy",
    "name": "Fenway",
    "platform_colors": [
      "00843D"
    ],
    "station_colors": [
      "00843D"
    ]
  },
  {
    "id": "70034",
    "platform_name": "Forest Hills",
    "longitude": -71.074381,
    "latitude": 42.426677,
    "parent_station": "place-mlmnl",
    "name": "Malden Center",
    "platform_colors": [
      "ED8B00"
    ],
    "station_colors": [
      "ED8B00"
    ]
  },
  {
    "id": "70106",
    "platform_name": "Park Street & North",
    "longitude": -71.167029,
    "latitude": 42.340149,
    "parent_station": "place-lake",
    "name": "Boston College",
    "platform_colors": [
      "00843D"
    ],
    "station_colors": [
      "00843D"
    ]
  },
  {
    "id": "70018",
    "platform_name": "Forest Hills",
    "longitude": -71.062752,
    "latitude": 42.352547,
    "parent_station": "place-chncl",
    "name": "Chinatown",
    "platform_colors": [
      "ED8B00"
    ],
    "station_colors": [
      "ED8B00"
    ]
  },
  {
    "id": "70017",
    "platform_name": "Oak Grove",
    "longitude": -71.063917,
    "latitude": 42.349662,
    "parent_station": "place-tumnl",
    "name": "Tufts Medical Center",
    "platform_colors": [
      "ED8B00"
    ],
    "station_colors": [
      "ED8B00"
    ]
  },
  {
    "id": "70023",
    "platform_name": "Oak Grove",
    "longitude": -71.057598,
    "latitude": 42.358978,
    "parent_station": "place-state",
    "name": "State",
    "platform_colors": [
      "ED8B00"
    ],
    "station_colors": [
      "ED8B00",
      "003DA5"
    ]
  },
  {
    "id": "70124",
    "platform_name": "Park Street & North",
    "longitude": -71.140436,
    "latitude": 42.348285,
    "parent_station": "place-wrnst",
    "name": "Warren Street",
    "platform_colors": [
      "00843D"
    ],
    "station_colors": [
      "00843D"
    ]
  },
  {
    "id": "70127",
    "platform_name": "Boston College",
    "longitude": -71.137362,
    "latitude": 42.348546,
    "parent_station": "place-alsgr",
    "name": "Allston Street",
    "platform_colors": [
      "00843D"
    ],
    "station_colors": [
      "00843D"
    ]
  },
  {
    "id": "70126",
    "platform_name": "Park Street & North",
    "longitude": -71.137881,
    "latitude": 42.348649,
    "parent_station": "place-alsgr",
    "name": "Allston Street",
    "platform_colors": [
      "00843D"
    ],
    "station_colors": [
      "00843D"
    ]
  },
  {
    "id": "70168",
    "platform_name": "Park Street & North",
    "longitude": -71.205082,
    "latitude": 42.322738,
    "parent_station": "place-newtn",
    "name": "Newton Highlands",
    "platform_colors": [
      "00843D"
    ],
    "station_colors": [
      "00843D"
    ]
  },
  {
    "id": "70044",
    "platform_name": "Wonderland",
    "longitude": -71.051652,
    "latitude": 42.359784,
    "parent_station": "place-aqucl",
    "name": "Aquarium",
    "platform_colors": [
      "003DA5"
    ],
    "station_colors": [
      "003DA5"
    ]
  },
  {
    "id": "70241",
    "platform_name": "Heath Street",
    "longitude": -71.085056,
    "latitude": 42.342687,
    "parent_station": "place-symcl",
    "name": "Symphony",
    "platform_colors": [
      "00843D"
    ],
    "station_colors": [
      "00843D"
    ]
  },
  {
    "id": "71150",
    "platform_name": "Park Street & North",
    "longitude": -71.095169,
    "latitude": 42.348949,
    "parent_station": "place-kencl",
    "name": "Kenmore",
    "platform_colors": [
      "00843D"
    ],
    "station_colors": [
      "00843D"
    ]
  },
  {
    "id": "70250",
    "platform_name": "Park Street & North",
    "longitude": -71.103017,
    "latitude": 42.334846,
    "parent_station": "place-brmnl",
    "name": "Brigham Circle",
    "platform_colors": [
      "00843D"
    ],
    "station_colors": [
      "00843D"
    ]
  },
  {
    "id": "70182",
    "platform_name": "Park Street & North",
    "longitude": -71.109777,
    "latitude": 42.341808,
    "parent_station": "place-longw",
    "name": "Longwood",
    "platform_colors": [
      "00843D"
    ],
    "station_colors": [
      "00843D"
    ]
  },
  {
    "id": "70104",
    "platform_name": "Alewife",
    "longitude": -71.007153,
    "latitude": 42.233391,
    "parent_station": "place-qamnl",
    "name": "Quincy Adams",
    "platform_colors": [
      "DA291C"
    ],
    "station_colors": [
      "DA291C"
    ]
  },
  {
    "id": "70046",
    "platform_name": "Wonderland",
    "longitude": -71.03953,
    "latitude": 42.369119,
    "parent_station": "place-mvbcl",
    "name": "Maverick",
    "platform_colors": [
      "003DA5"
    ],
    "station_colors": [
      "003DA5"
    ]
  },
  {
    "id": "70203",
    "platform_name": "North Station & North",
    "longitude": -71.05829,
    "latitude": 42.363021,
    "parent_station": "place-haecl",
    "name": "Haymarket",
    "platform_colors": [
      "00843D"
    ],
    "station_colors": [
      "ED8B00",
      "00843D"
    ]
  },
  {
    "id": "70010",
    "platform_name": "Forest Hills",
    "longitude": -71.089684,
    "latitude": 42.33649,
    "parent_station": "place-rugg",
    "name": "Ruggles",
    "platform_colors": [
      "ED8B00"
    ],
    "station_colors": [
      "ED8B00"
    ]
  },
  {
    "id": "70081",
    "platform_name": "Ashmont/Braintree",
    "longitude": -71.056967,
    "latitude": 42.342622,
    "parent_station": "place-brdwy",
    "name": "Broadway",
    "platform_colors": [
      "DA291C"
    ],
    "station_colors": [
      "DA291C"
    ]
  },
  {
    "id": "70041",
    "platform_name": "Bowdoin",
    "longitude": -71.057598,
    "latitude": 42.358978,
    "parent_station": "place-state",
    "name": "State",
    "platform_colors": [
      "003DA5"
    ],
    "station_colors": [
      "ED8B00",
      "003DA5"
    ]
  },
  {
    "id": "70257",
    "platform_name": "Heath Street",
    "longitude": -71.111046,
    "latitude": 42.329369,
    "parent_station": "place-bckhl",
    "name": "Back of the Hill",
    "platform_colors": [
      "00843D"
    ],
    "station_colors": [
      "00843D"
    ]
  },
  {
    "id": "70006",
    "platform_name": "Forest Hills",
    "longitude": -71.099592,
    "latitude": 42.323132,
    "parent_station": "place-jaksn",
    "name": "Jackson Square",
    "platform_colors": [
      "ED8B00"
    ],
    "station_colors": [
      "ED8B00"
    ]
  },
  {
    "id": "70014",
    "platform_name": "Forest Hills",
    "longitude": -71.075727,
    "latitude": 42.34735,
    "parent_station": "place-bbsta",
    "name": "Back Bay",
    "platform_colors": [
      "ED8B00"
    ],
    "station_colors": [
      "ED8B00"
    ]
  },
  {
    "id": "70506",
    "platform_name": "Copley & West",
    "longitude": -71.096629,
    "latitude": 42.387831,
    "parent_station": "place-gilmn",
    "name": "Gilman Square",
    "platform_colors": [
      "00843D"
    ],
    "station_colors": [
      "00843D"
    ]
  },
  {
    "id": "70033",
    "platform_name": "Oak Grove",
    "longitude": -71.07715,
    "latitude": 42.401507,
    "parent_station": "place-welln",
    "name": "Wellington",
    "platform_colors": [
      "ED8B00"
    ],
    "station_colors": [
      "ED8B00"
    ]
  },
  {
    "id": "70253",
    "platform_name": "Heath Street",
    "longitude": -71.109276,
    "latitude": 42.333279,
    "parent_station": "place-mispk",
    "name": "Mission Park",
    "platform_colors": [
      "00843D"
    ],
    "station_colors": [
      "00843D"
    ]
  },
  {
    "id": "70051",
    "platform_name": "Bowdoin",
    "longitude": -71.004809,
    "latitude": 42.386909,
    "parent_station": "place-orhte",
    "name": "Orient Heights",
    "platform_colors": [
      "003DA5"
    ],
    "station_colors": [
      "003DA5"
    ]
  },
  {
    "id": "70178",
    "platform_name": "Park Street & North",
    "longitude": -71.126406,
    "latitude": 42.331293,
    "parent_station": "place-brkhl",
    "name": "Brookline Hills",
    "platform_colors": [
      "00843D"
    ],
    "station_colors": [
      "00843D"
    ]
  },
  {
    "id": "70130",
    "platform_name": "Park Street & North",
    "longitude": -71.131298,
    "latitude": 42.350263,
    "parent_station": "place-harvd",
    "name": "Harvard Avenue",
    "platform_colors": [
      "00843D"
    ],
    "station_colors": [
      "00843D"
    ]
  },
  {
    "id": "70068",
    "platform_name": "Alewife",
    "longitude": -71.118814,
    "latitude": 42.374663,
    "parent_station": "place-harsq",
    "name": "Harvard",
    "platform_colors": [
      "DA291C"
    ],
    "station_colors": [
      "DA291C"
    ]
  },
  {
    "id": "70244",
    "platform_name": "Park Street & North",
    "longitude": -71.0892,
    "latitude": 42.340222,
    "parent_station": "place-nuniv",
    "name": "Northeastern University",
    "platform_colors": [
      "00843D"
    ],
    "station_colors": [
      "00843D"
    ]
  },
  {
    "id": "70169",
    "platform_name": "Riverside",
    "longitude": -71.205421,
    "latitude": 42.32253,
    "parent_station": "place-newtn",
    "name": "Newton Highlands",
    "platform_colors": [
      "00843D"
    ],
    "station_colors": [
      "00843D"
    ]
  },
  {
    "id": "70238",
    "platform_name": "Park Street & North",
    "longitude": -71.148774,
    "latitude": 42.336252,
    "parent_station": "place-clmnl",
    "name": "Cleveland Circle",
    "platform_colors": [
      "00843D"
    ],
    "station_colors": [
      "00843D"
    ]
  },
  {
    "id": "70234",
    "platform_name": "Park Street & North",
    "longitude": -71.142309,
    "latitude": 42.337628,
    "parent_station": "place-denrd",
    "name": "Dean Road",
    "platform_colors": [
      "00843D"
    ],
    "station_colors": [
      "00843D"
    ]
  },
  {
    "id": "70181",
    "platform_name": "Riverside",
    "longitude": -71.117041,
    "latitude": 42.33257,
    "parent_station": "place-bvmnl",
    "name": "Brookline Village",
    "platform_colors": [
      "00843D"
    ],
    "station_colors": [
      "00843D"
    ]
  },
  {
    "id": "70216",
    "platform_name": "Park Street & North",
    "longitude": -71.114569,
    "latitude": 42.343927,
    "parent_station": "place-kntst",
    "name": "Kent Street",
    "platform_colors": [
      "00843D"
    ],
    "station_colors": [
      "00843D"
    ]
  },
  {
    "id": "70508",
    "platform_name": "Copley & West",
    "longitude": -71.106688,
    "latitude": 42.39405,
    "parent_station": "place-mgngl",
    "name": "Magoun Square",
    "platform_colors": [
      "00843D"
    ],
    "station_colors": [
      "00843D"
    ]
  },
  {
    "id": "70012",
    "platform_name": "Forest Hills",
    "longitude": -71.084188,
    "latitude": 42.340927,
    "parent_station": "place-masta",
    "name": "Massachusetts Avenue",
    "platform_colors": [
      "ED8B00"
    ],
    "station_colors": [
      "ED8B00"
    ]
  },
  {
    "id": "70211",
    "platform_name": "Cleveland Circle",
    "longitude": -71.107697,
    "latitude": 42.345884,
    "parent_station": "place-smary",
    "name": "Saint Mary's Street",
    "platform_colors": [
      "00843D"
    ],
    "station_colors": [
      "00843D"
    ]
  },
  {
    "id": "70093",
    "platform_name": "Exit Only",
    "longitude": -71.063833,
    "latitude": 42.284508,
    "parent_station": "place-asmnl",
    "name": "Ashmont",
    "platform_colors": [
      "DA291C"
    ],
    "station_colors": [
      "DA291C"
    ]
  },
  {
    "id": "70165",
    "platform_name": "Riverside",
    "longitude": -71.230714,
    "latitude": 42.325967,
    "parent_station": "place-waban",
    "name": "Waban",
    "platform_colors": [
      "00843D"
    ],
    "station_colors": [
      "00843D"
    ]
  },
  {
    "id": "70048",
    "platform_name": "Wonderland",
    "longitude": -71.030395,
    "latitude": 42.374262,
    "parent_station": "place-aport",
    "name": "Airport",
    "platform_colors": [
      "003DA5"
    ],
    "station_colors": [
      "003DA5"
    ]
  },
  {
    "id": "70066",
    "platform_name": "Alewife",
    "longitude": -71.119149,
    "latitude": 42.3884,
    "parent_station": "place-portr",
    "name": "Porter",
    "platform_colors": [
      "DA291C"
    ],
    "station_colors": [
      "DA291C"
    ]
  },
  {
    "id": "70114",
    "platform_name": "Park Street & North",
    "longitude": -71.150633,
    "latitude": 42.340808,
    "parent_station": "place-chswk",
    "name": "Chiswick Road",
    "platform_colors": [
      "00843D"
    ],
    "station_colors": [
      "00843D"
    ]
  },
  {
    "id": "70067",
    "platform_name": "Ashmont/Braintree",
    "longitude": -71.118814,
    "latitude": 42.374663,
    "parent_station": "place-harsq",
    "name": "Harvard",
    "platform_colors": [
      "DA291C"
    ],
    "station_colors": [
      "DA291C"
    ]
  },
  {
    "id": "70220",
    "platform_name": "Park Street & North",
    "longitude": -71.121685,
    "latitude": 42.342028,
    "parent_station": "place-cool",
    "name": "Coolidge Corner",
    "platform_colors": [
      "00843D"
    ],
    "station_colors": [
      "00843D"
    ]
  },
  {
    "id": "70015",
    "platform_name": "Oak Grove",
    "longitude": -71.075727,
    "latitude": 42.34735,
    "parent_station": "place-bbsta",
    "name": "Back Bay",
    "platform_colors": [
      "ED8B00"
    ],
    "station_colors": [
      "ED8B00"
    ]
  },
  {
    "id": "70088",
    "platform_name": "Alewife",
    "longitude": -71.053612,
    "latitude": 42.310591,
    "parent_station": "place-shmnl",
    "name": "Savin Hill",
    "platform_colors": [
      "DA291C"
    ],
    "station_colors": [
      "DA291C"
    ]
  },
  {
    "id": "70116",
    "platform_name": "Park Street & North",
    "longitude": -71.146089,
    "latitude": 42.341589,
    "parent_station": "place-sthld",
    "name": "Sutherland Road",
    "platform_colors": [
      "00843D"
    ],
    "station_colors": [
      "00843D"
    ]
  },
  {
    "id": "70131",
    "platform_name": "Boston College",
    "longitude": -71.130727,
    "latitude": 42.350602,
    "parent_station": "place-harvd",
    "name": "Harvard Avenue",
    "platform_colors": [
      "00843D"
    ],
    "station_colors": [
      "00843D"
    ]
  },
  {
    "id": "70183",
    "platform_name": "Riverside",
    "longitude": -71.110147,
    "latitude": 42.341571,
    "parent_station": "place-longw",
    "name": "Longwood",
    "platform_colors": [
      "00843D"
    ],
    "station_colors": [
      "00843D"
    ]
  },
  {
    "id": "70503",
    "platform_name": "Copley & West",
    "longitude": -71.093964,
    "latitude": 42.377024,
    "parent_station": "place-unsqu",
    "name": "Union Square",
    "platform_colors": [
      "00843D"
    ],
    "station_colors": [
      "00843D"
    ]
  },
  {
    "id": "70063",
    "platform_name": "Ashmont/Braintree",
    "longitude": -71.121815,
    "latitude": 42.39674,
    "parent_station": "place-davis",
    "name": "Davis",
    "platform_colors": [
      "DA291C"
    ],
    "station_colors": [
      "DA291C"
    ]
  },
  {
    "id": "70507",
    "platform_name": "Medford/Tufts",
    "longitude": -71.106824,
    "latitude": 42.394357,
    "parent_station": "place-mgngl",
    "name": "Magoun Square",
    "platform_colors": [
      "00843D"
    ],
    "station_colors": [
      "00843D"
    ]
  },
  {
    "id": "70120",
    "platform_name": "Park Street & North",
    "longitude": -71.142385,
    "latitude": 42.344329,
    "parent_station": "place-wascm",
    "name": "Washington Street",
    "platform_colors": [
      "00843D"
    ],
    "station_colors": [
      "00843D"
    ]
  },
  {
    "id": "70256",
    "platform_name": "Park Street & North",
    "longitude": -71.111961,
    "latitude": 42.331871,
    "parent_station": "place-rvrwy",
    "name": "Riverway",
    "platform_colors": [
      "00843D"
    ],
    "station_colors": [
      "00843D"
    ]
  },
  {
    "id": "70064",
    "platform_name": "Alewife",
    "longitude": -71.121815,
    "latitude": 42.39674,
    "parent_station": "place-davis",
    "name": "Davis",
    "platform_colors": [
      "DA291C"
    ],
    "station_colors": [
      "DA291C"
    ]
  },
  {
    "id": "70174",
    "platform_name": "Park Street & North",
    "longitude": -71.147879,
    "latitude": 42.335181,
    "parent_station": "place-rsmnl",
    "name": "Reservoir",
    "platform_colors": [
      "00843D"
    ],
    "station_colors": [
      "00843D"
    ]
  },
  {
    "id": "70100",
    "platform_name": "Alewife",
    "longitude": -71.020457,
    "latitude": 42.266788,
    "parent_station": "place-wlsta",
    "name": "Wollaston",
    "platform_colors": [
      "DA291C"
    ],
    "station_colors": [
      "DA291C"
    ]
  },
  {
    "id": "70035",
    "platform_name": "Oak Grove",
    "longitude": -71.074314,
    "latitude": 42.426662,
    "parent_station": "place-mlmnl",
    "name": "Malden Center",
    "platform_colors": [
      "ED8B00"
    ],
    "station_colors": [
      "ED8B00"
    ]
  },
  {
    "id": "70201",
    "platform_name": "North Station & North",
    "longitude": -71.059215,
    "latitude": 42.359705,
    "parent_station": "place-gover",
    "name": "Government Center",
    "platform_colors": [
      "00843D"
    ],
    "station_colors": [
      "00843D",
      "003DA5"
    ]
  },
  {
    "id": "70115",
    "platform_name": "Boston College",
    "longitude": -71.15114,
    "latitude": 42.34054,
    "parent_station": "place-chswk",
    "name": "Chiswick Road",
    "platform_colors": [
      "00843D"
    ],
    "station_colors": [
      "00843D"
    ]
  },
  {
    "id": "70125",
    "platform_name": "Boston College",
    "longitude": -71.140051,
    "latitude": 42.348819,
    "parent_station": "place-wrnst",
    "name": "Warren Street",
    "platform_colors": [
      "00843D"
    ],
    "station_colors": [
      "00843D"
    ]
  },
  {
    "id": "70072",
    "platform_name": "Alewife",
    "longitude": -71.085591,
    "latitude": 42.362434,
    "parent_station": "place-knncl",
    "name": "Kendall/MIT",
    "platform_colors": [
      "DA291C"
    ],
    "station_colors": [
      "DA291C"
    ]
  },
  {
    "id": "70092",
    "platform_name": "Alewife",
    "longitude": -71.065738,
    "latitude": 42.293126,
    "parent_station": "place-smmnl",
    "name": "Shawmut",
    "platform_colors": [
      "DA291C"
    ],
    "station_colors": [
      "DA291C"
    ]
  },
  {
    "id": "70173",
    "platform_name": "Riverside",
    "longitude": -71.16478,
    "latitude": 42.326782,
    "parent_station": "place-chhil",
    "name": "Chestnut Hill",
    "platform_colors": [
      "00843D"
    ],
    "station_colors": [
      "00843D"
    ]
  },
  {
    "id": "70215",
    "platform_name": "Cleveland Circle",
    "longitude": -71.114097,
    "latitude": 42.344117,
    "parent_station": "place-kntst",
    "name": "Kent Street",
    "platform_colors": [
      "00843D"
    ],
    "station_colors": [
      "00843D"
    ]
  },
  {
    "id": "70095",
    "platform_name": "Braintree",
    "longitude": -71.052287,
    "latitude": 42.320418,
    "parent_station": "place-jfk",
    "name": "JFK/UMass",
    "platform_colors": [
      "DA291C"
    ],
    "station_colors": [
      "DA291C"
    ]
  },
  {
    "id": "70047",
    "platform_name": "Bowdoin",
    "longitude": -71.030395,
    "latitude": 42.374262,
    "parent_station": "place-aport",
    "name": "Airport",
    "platform_colors": [
      "003DA5"
    ],
    "station_colors": [
      "003DA5"
    ]
  },
  {
    "id": "70073",
    "platform_name": "Ashmont/Braintree",
    "longitude": -71.071505,
    "latitude": 42.361187,
    "parent_station": "place-chmnl",
    "name": "Charles/MGH",
    "platform_colors": [
      "DA291C"
    ],
    "station_colors": [
      "DA291C"
    ]
  },
  {
    "id": "70091",
    "platform_name": "Ashmont",
    "longitude": -71.065738,
    "latitude": 42.293126,
    "parent_station": "place-smmnl",
    "name": "Shawmut",
    "platform_colors": [
      "DA291C"
    ],
    "station_colors": [
      "DA291C"
    ]
  },
  {
    "id": "70223",
    "platform_name": "Cleveland Circle",
    "longitude": -71.125652,
    "latitude": 42.34112,
    "parent_station": "place-sumav",
    "name": "Summit Avenue",
    "platform_colors": [
      "00843D"
    ],
    "station_colors": [
      "00843D"
    ]
  },
  {
    "id": "70251",
    "platform_name": "Heath Street",
    "longitude": -71.105721,
    "latitude": 42.33374,
    "parent_station": "place-fenwd",
    "name": "Fenwood Road",
    "platform_colors": [
      "00843D"
    ],
    "station_colors": [
      "00843D"
    ]
  },
  {
    "id": "70020",
    "platform_name": "Forest Hills",
    "longitude": -71.060225,
    "latitude": 42.355518,
    "parent_station": "place-dwnxg",
    "name": "Downtown Crossing",
    "platform_colors": [
      "ED8B00"
    ],
    "station_colors": [
      "DA291C",
      "ED8B00"
    ]
  },
  {
    "id": "70263",
    "platform_name": "Mattapan",
    "longitude": -71.060392,
    "latitude": 42.279546,
    "parent_station": "place-cedgr",
    "name": "Cedar Grove",
    "platform_colors": [
      "DA291C"
    ],
    "station_colors": [
      "DA291C"
    ]
  },
  {
    "id": "70177",
    "platform_name": "Riverside",
    "longitude": -71.140903,
    "latitude": 42.335912,
    "parent_station": "place-bcnfd",
    "name": "Beaconsfield",
    "platform_colors": [
      "00843D"
    ],
    "station_colors": [
      "00843D"
    ]
  },
  {
    "id": "70121",
    "platform_name": "Boston College",
    "longitude": -71.142731,
    "latitude": 42.343974,
    "parent_station": "place-wascm",
    "name": "Washington Street",
    "platform_colors": [
      "00843D"
    ],
    "station_colors": [
      "00843D"
    ]
  },
  {
    "id": "70267",
    "platform_name": "Mattapan",
    "longitude": -71.067253,
    "latitude": 42.270388,
    "parent_station": "place-miltt",
    "name": "Milton",
    "platform_colors": [
      "DA291C"
    ],
    "station_colors": [
      "DA291C"
    ]
  },
  {
    "id": "70501",
    "platform_name": "Union Square, Medford/Tufts",
    "longitude": -71.076457,
    "latitude": 42.371566,
    "parent_station": "place-lech",
    "name": "Lechmere",
    "platform_colors": [
      "00843D"
    ],
    "station_colors": [
      "00843D"
    ]
  },
  {
    "id": "70060",
    "platform_name": "Exit Only",
    "longitude": -70.991685,
    "latitude": 42.413361,
    "parent_station": "place-wondl",
    "name": "Wonderland",
    "platform_colors": [
      "003DA5"
    ],
    "station_colors": [
      "003DA5"
    ]
  },
  {
    "id": "70054",
    "platform_name": "Wonderland",
    "longitude": -70.99703,
    "latitude": 42.39061,
    "parent_station": "place-sdmnl",
    "name": "Suffolk Downs",
    "platform_colors": [
      "003DA5"
    ],
    "station_colors": [
      "003DA5"
    ]
  },
  {
    "id": "70249",
    "platform_name": "Heath Street",
    "longitude": -71.104487,
    "latitude": 42.334331,
    "parent_station": "place-brmnl",
    "name": "Brigham Circle",
    "platform_colors": [
      "00843D"
    ],
    "station_colors": [
      "00843D"
    ]
  },
  {
    "id": "70005",
    "platform_name": "Oak Grove",
    "longitude": -71.104248,
    "latitude": 42.317062,
    "parent_station": "place-sbmnl",
    "name": "Stony Brook",
    "platform_colors": [
      "ED8B00"
    ],
    "station_colors": [
      "ED8B00"
    ]
  },
  {
    "id": "70170",
    "platform_name": "Park Street & North",
    "longitude": -71.192024,
    "latitude": 42.329552,
    "parent_station": "place-newto",
    "name": "Newton Centre",
    "platform_colors": [
      "00843D"
    ],
    "station_colors": [
      "00843D"
    ]
  },
  {
    "id": "70206",
    "platform_name": "Copley & West",
    "longitude": -71.060205,
    "latitude": 42.36528,
    "parent_station": "place-north",
    "name": "North Station",
    "platform_colors": [
      "00843D"
    ],
    "station_colors": [
      "00843D",
      "ED8B00"
    ]
  },
  {
    "id": "70003",
    "platform_name": "Oak Grove",
    "longitude": -71.107988,
    "latitude": 42.309796,
    "parent_station": "place-grnst",
    "name": "Green Street",
    "platform_colors": [
      "ED8B00"
    ],
    "station_colors": [
      "ED8B00"
    ]
  },
  {
    "id": "70208",
    "platform_name": "Copley & West",
    "longitude": -71.067666,
    "latitude": 42.366664,
    "parent_station": "place-spmnl",
    "name": "Science Park/West End",
    "platform_colors": [
      "00843D"
    ],
    "station_colors": [
      "00843D"
    ]
  },
  {
    "id": "70013",
    "platform_name": "Oak Grove",
    "longitude": -71.084124,
    "latitude": 42.340892,
    "parent_station": "place-masta",
    "name": "Massachusetts Avenue",
    "platform_colors": [
      "ED8B00"
    ],
    "station_colors": [
      "ED8B00"
    ]
  },
  {
    "id": "70059",
    "platform_name": "Bowdoin",
    "longitude": -70.991714,
    "latitude": 42.413514,
    "parent_station": "place-wondl",
    "name": "Wonderland",
    "platform_colors": [
      "003DA5"
    ],
    "station_colors": [
      "003DA5"
    ]
  },
  {
    "id": "71151",
    "platform_name": "Boston College",
    "longitude": -71.095169,
    "latitude": 42.348949,
    "parent_station": "place-kencl",
    "name": "Kenmore",
    "platform_colors": [
      "00843D"
    ],
    "station_colors": [
      "00843D"
    ]
  },
  {
    "id": "70135",
    "platform_name": "Boston College",
    "longitude": -71.12551,
    "latitude": 42.351651,
    "parent_station": "place-brico",
    "name": "Packard's Corner",
    "platform_colors": [
      "00843D"
    ],
    "station_colors": [
      "00843D"
    ]
  },
  {
    "id": "70117",
    "platform_name": "Boston College",
    "longitude": -71.146607,
    "latitude": 42.341577,
    "parent_station": "place-sthld",
    "name": "Sutherland Road",
    "platform_colors": [
      "00843D"
    ],
    "station_colors": [
      "00843D"
    ]
  },
  {
    "id": "70004",
    "platform_name": "Forest Hills",
    "longitude": -71.104248,
    "latitude": 42.317062,
    "parent_station": "place-sbmnl",
    "name": "Stony Brook",
    "platform_colors": [
      "ED8B00"
    ],
    "station_colors": [
      "ED8B00"
    ]
  },
  {
    "id": "70042",
    "platform_name": "Wonderland",
    "longitude": -71.057598,
    "latitude": 42.358978,
    "parent_station": "place-state",
    "name": "State",
    "platform_colors": [
      "003DA5"
    ],
    "station_colors": [
      "ED8B00",
      "003DA5"
    ]
  },
  {
    "id": "70248",
    "platform_name": "Park Street & North",
    "longitude": -71.099328,
    "latitude": 42.336217,
    "parent_station": "place-lngmd",
    "name": "Longwood Medical Area",
    "platform_colors": [
      "00843D"
    ],
    "station_colors": [
      "00843D"
    ]
  },
  {
    "id": "70061",
    "platform_name": "Red Line",
    "longitude": -71.140698,
    "latitude": 42.396148,
    "parent_station": "place-alfcl",
    "name": "Alewife",
    "platform_colors": [
      "DA291C"
    ],
    "station_colors": [
      "DA291C"
    ]
  },
  {
    "id": "70008",
    "platform_name": "Forest Hills",
    "longitude": -71.096121,
    "latitude": 42.330671,
    "parent_station": "place-rcmnl",
    "name": "Roxbury Crossing",
    "platform_colors": [
      "ED8B00"
    ],
    "station_colors": [
      "ED8B00"
    ]
  },
  {
    "id": "70157",
    "platform_name": "Copley & West",
    "longitude": -71.070893,
    "latitude": 42.351902,
    "parent_station": "place-armnl",
    "name": "Arlington",
    "platform_colors": [
      "00843D"
    ],
    "station_colors": [
      "00843D"
    ]
  },
  {
    "id": "70001",
    "platform_name": "Orange Line",
    "longitude": -71.114129,
    "latitude": 42.300926,
    "parent_station": "place-forhl",
    "name": "Forest Hills",
    "platform_colors": [
      "ED8B00"
    ],
    "station_colors": [
      "ED8B00"
    ]
  },
  {
    "id": "70247",
    "platform_name": "Heath Street",
    "longitude": -71.099883,
    "latitude": 42.33608,
    "parent_station": "place-lngmd",
    "name": "Longwood Medical Area",
    "platform_colors": [
      "00843D"
    ],
    "station_colors": [
      "00843D"
    ]
  },
  {
    "id": "70083",
    "platform_name": "Ashmont/Braintree",
    "longitude": -71.057655,
    "latitude": 42.330154,
    "parent_station": "place-andrw",
    "name": "Andrew",
    "platform_colors": [
      "DA291C"
    ],
    "station_colors": [
      "DA291C"
    ]
  },
  {
    "id": "70198",
    "platform_name": "Riverside",
    "longitude": -71.062424,
    "latitude": 42.356395,
    "parent_station": "place-pktrm",
    "name": "Park Street",
    "platform_colors": [
      "00843D"
    ],
    "station_colors": [
      "00843D",
      "DA291C"
    ]
  },
  {
    "id": "70224",
    "platform_name": "Park Street & North",
    "longitude": -71.125759,
    "latitude": 42.341027,
    "parent_station": "place-sumav",
    "name": "Summit Avenue",
    "platform_colors": [
      "00843D"
    ],
    "station_colors": [
      "00843D"
    ]
  },
  {
    "id": "70504",
    "platform_name": "Copley & West",
    "longitude": -71.093993,
    "latitude": 42.37699,
    "parent_station": "place-unsqu",
    "name": "Union Square",
    "platform_colors": [
      "00843D"
    ],
    "station_colors": [
      "00843D"
    ]
  },
  {
    "id": "70075",
    "platform_name": "Ashmont/Braintree",
    "longitude": -71.062424,
    "latitude": 42.356395,
    "parent_station": "place-pktrm",
    "name": "Park Street",
    "platform_colors": [
      "DA291C"
    ],
    "station_colors": [
      "00843D",
      "DA291C"
    ]
  },
  {
    "id": "70212",
    "platform_name": "Park Street & North",
    "longitude": -71.107166,
    "latitude": 42.346007,
    "parent_station": "place-smary",
    "name": "Saint Mary's Street",
    "platform_colors": [
      "00843D"
    ],
    "station_colors": [
      "00843D"
    ]
  },
  {
    "id": "70024",
    "platform_name": "Forest Hills",
    "longitude": -71.05829,
    "latitude": 42.363021,
    "parent_station": "place-haecl",
    "name": "Haymarket",
    "platform_colors": [
      "ED8B00"
    ],
    "station_colors": [
      "ED8B00",
      "00843D"
    ]
  },
  {
    "id": "70032",
    "platform_name": "Forest Hills",
    "longitude": -71.077252,
    "latitude": 42.401505,
    "parent_station": "place-welln",
    "name": "Wellington",
    "platform_colors": [
      "ED8B00"
    ],
    "station_colors": [
      "ED8B00"
    ]
  },
  {
    "id": "70200",
    "platform_name": "Government Center & North",
    "longitude": -71.062424,
    "latitude": 42.356395,
    "parent_station": "place-pktrm",
    "name": "Park Street",
    "platform_colors": [
      "00843D"
    ],
    "station_colors": [
      "00843D",
      "DA291C"
    ]
  },
  {
    "id": "70166",
    "platform_name": "Park Street & North",
    "longitude": -71.21642,
    "latitude": 42.318871,
    "parent_station": "place-eliot",
    "name": "Eliot",
    "platform_colors": [
      "00843D"
    ],
    "station_colors": [
      "00843D"
    ]
  },
  {
    "id": "70039",
    "platform_name": "Bowdoin",
    "longitude": -71.059215,
    "latitude": 42.359705,
    "parent_station": "place-gover",
    "name": "Government Center",
    "platform_colors": [
      "003DA5"
    ],
    "station_colors": [
      "00843D",
      "003DA5"
    ]
  },
  {
    "id": "70230",
    "platform_name": "Park Street & North",
    "longitude": -71.134587,
    "latitude": 42.339519,
    "parent_station": "place-bcnwa",
    "name": "Washington Square",
    "platform_colors": [
      "00843D"
    ],
    "station_colors": [
      "00843D"
    ]
  },
  {
    "id": "70101",
    "platform_name": "Braintree",
    "longitude": -71.005409,
    "latitude": 42.251809,
    "parent_station": "place-qnctr",
    "name": "Quincy Center",
    "platform_colors": [
      "DA291C"
    ],
    "station_colors": [
      "DA291C"
    ]
  },
  {
    "id": "70231",
    "platform_name": "Cleveland Circle",
    "longitude": -71.138731,
    "latitude": 42.338498,
    "parent_station": "place-tapst",
    "name": "Tappan Street",
    "platform_colors": [
      "00843D"
    ],
    "station_colors": [
      "00843D"
    ]
  },
  {
    "id": "70097",
    "platform_name": "Braintree",
    "longitude": -71.030194,
    "latitude": 42.27577,
    "parent_station": "place-nqncy",
    "name": "North Quincy",
    "platform_colors": [
      "DA291C"
    ],
    "station_colors": [
      "DA291C"
    ]
  },
  {
    "id": "70077",
    "platform_name": "Ashmont/Braintree",
    "longitude": -71.060225,
    "latitude": 42.355518,
    "parent_station": "place-dwnxg",
    "name": "Downtown Crossing",
    "platform_colors": [
      "DA291C"
    ],
    "station_colors": [
      "DA291C",
      "ED8B00"
    ]
  },
  {
    "id": "70207",
    "platform_name": "Lechmere & North",
    "longitude": -71.067666,
    "latitude": 42.366664,
    "parent_station": "place-spmnl",
    "name": "Science Park/West End",
    "platform_colors": [
      "00843D"
    ],
    "station_colors": [
      "00843D"
    ]
  },
  {
    "id": "70026",
    "platform_name": "Forest Hills",
    "longitude": -71.060205,
    "latitude": 42.36528,
    "parent_station": "place-north",
    "name": "North Station",
    "platform_colors": [
      "ED8B00"
    ],
    "station_colors": [
      "00843D",
      "ED8B00"
    ]
  },
  {
    "id": "70082",
    "platform_name": "Alewife",
    "longitude": -71.056967,
    "latitude": 42.342622,
    "parent_station": "place-brdwy",
    "name": "Broadway",
    "platform_colors": [
      "DA291C"
    ],
    "station_colors": [
      "DA291C"
    ]
  },
  {
    "id": "70217",
    "platform_name": "Cleveland Circle",
    "longitude": -71.116927,
    "latitude": 42.34334,
    "parent_station": "place-stpul",
    "name": "Saint Paul Street",
    "platform_colors": [
      "00843D"
    ],
    "station_colors": [
      "00843D"
    ]
  },
  {
    "id": "70069",
    "platform_name": "Ashmont/Braintree",
    "longitude": -71.103621,
    "latitude": 42.365304,
    "parent_station": "place-cntsq",
    "name": "Central",
    "platform_colors": [
      "DA291C"
    ],
    "station_colors": [
      "DA291C"
    ]
  },
  {
    "id": "70214",
    "platform_name": "Park Street & North",
    "longitude": -71.111157,
    "latitude": 42.344867,
    "parent_station": "place-hwsst",
    "name": "Hawes Street",
    "platform_colors": [
      "00843D"
    ],
    "station_colors": [
      "00843D"
    ]
  },
  {
    "id": "70180",
    "platform_name": "Park Street & North",
    "longitude": -71.116751,
    "latitude": 42.332614,
    "parent_station": "place-bvmnl",
    "name": "Brookline Village",
    "platform_colors": [
      "00843D"
    ],
    "station_colors": [
      "00843D"
    ]
  },
  {
    "id": "70252",
    "platform_name": "Park Street & North",
    "longitude": -71.105583,
    "latitude": 42.333706,
    "parent_station": "place-fenwd",
    "name": "Fenwood Road",
    "platform_colors": [
      "00843D"
    ],
    "station_colors": [
      "00843D"
    ]
  },
  {
    "id": "70074",
    "platform_name": "Alewife",
    "longitude": -71.071602,
    "latitude": 42.361263,
    "parent_station": "place-chmnl",
    "name": "Charles/MGH",
    "platform_colors": [
      "DA291C"
    ],
    "station_colors": [
      "DA291C"
    ]
  },
  {
    "id": "170141",
    "platform_name": "Boston College",
    "longitude": -71.115027,
    "latitude": 42.351066,
    "parent_station": "place-amory",
    "name": "Amory Street",
    "platform_colors": [
      "00843D"
    ],
    "station_colors": [
      "00843D"
    ]
  },
  {
    "id": "70232",
    "platform_name": "Park Street & North",
    "longitude": -71.13819,
    "latitude": 42.338567,
    "parent_station": "place-tapst",
    "name": "Tappan Street",
    "platform_colors": [
      "00843D"
    ],
    "station_colors": [
      "00843D"
    ]
  },
  {
    "id": "70036",
    "platform_name": "Orange Line",
    "longitude": -71.070875,
    "latitude": 42.437735,
    "parent_station": "place-ogmnl",
    "name": "Oak Grove",
    "platform_colors": [
      "ED8B00"
    ],
    "station_colors": [
      "ED8B00"
    ]
  },
  {
    "id": "70255",
    "platform_name": "Heath Street",
    "longitude": -71.111925,
    "latitude": 42.331391,
    "parent_station": "place-rvrwy",
    "name": "Riverway",
    "platform_colors": [
      "00843D"
    ],
    "station_colors": [
      "00843D"
    ]
  },
  {
    "id": "70076",
    "platform_name": "Alewife",
    "longitude": -71.062424,
    "latitude": 42.356395,
    "parent_station": "place-pktrm",
    "name": "Park Street",
    "platform_colors": [
      "DA291C"
    ],
    "station_colors": [
      "00843D",
      "DA291C"
    ]
  },
  {
    "id": "70110",
    "platform_name": "Park Street & North",
    "longitude": -71.157057,
    "latitude": 42.339371,
    "parent_station": "place-sougr",
    "name": "South Street",
    "platform_colors": [
      "00843D"
    ],
    "station_colors": [
      "00843D"
    ]
  },
  {
    "id": "70265",
    "platform_name": "Mattapan",
    "longitude": -71.062513,
    "latitude": 42.272449,
    "parent_station": "place-butlr",
    "name": "Butler",
    "platform_colors": [
      "DA291C"
    ],
    "station_colors": [
      "DA291C"
    ]
  },
  {
    "id": "70049",
    "platform_name": "Bowdoin",
    "longitude": -71.022818,
    "latitude": 42.37974,
    "parent_station": "place-wimnl",
    "name": "Wood Island",
    "platform_colors": [
      "003DA5"
    ],
    "station_colors": [
      "003DA5"
    ]
  },
  {
    "id": "70084",
    "platform_name": "Alewife",
    "longitude": -71.057655,
    "latitude": 42.330154,
    "parent_station": "place-andrw",
    "name": "Andrew",
    "platform_colors": [
      "DA291C"
    ],
    "station_colors": [
      "DA291C"
    ]
  },
  {
    "id": "70274",
    "platform_name": "Ashmont",
    "longitude": -71.087338,
    "latitude": 42.267563,
    "parent_station": "place-capst",
    "name": "Capen Street",
    "platform_colors": [
      "DA291C"
    ],
    "station_colors": [
      "DA291C"
    ]
  },
  {
    "id": "70186",
    "platform_name": "Park Street & North",
    "longitude": -71.104269,
    "latitude": 42.345328,
    "parent_station": "place-fenwy",
    "name": "Fenway",
    "platform_colors": [
      "00843D"
    ],
    "station_colors": [
      "00843D"
    ]
  },
  {
    "id": "70237",
    "platform_name": "Exit Only",
    "longitude": -71.149201,
    "latitude": 42.336216,
    "parent_station": "place-clmnl",
    "name": "Cleveland Circle",
    "platform_colors": [
      "00843D"
    ],
    "station_colors": [
      "00843D"
    ]
  },
  {
    "id": "70154",
    "platform_name": "Park Street & North",
    "longitude": -71.078049,
    "latitude": 42.349871,
    "parent_station": "place-coecl",
    "name": "Copley",
    "platform_colors": [
      "00843D"
    ],
    "station_colors": [
      "00843D"
    ]
  },
  {
    "id": "70171",
    "platform_name": "Riverside",
    "longitude": -71.192622,
    "latitude": 42.3294,
    "parent_station": "place-newto",
    "name": "Newton Centre",
    "platform_colors": [
      "00843D"
    ],
    "station_colors": [
      "00843D"
    ]
  },
  {
    "id": "70228",
    "platform_name": "Park Street & North",
    "longitude": -71.131078,
    "latitude": 42.339644,
    "parent_station": "place-fbkst",
    "name": "Fairbanks Street",
    "platform_colors": [
      "00843D"
    ],
    "station_colors": [
      "00843D"
    ]
  },
  {
    "id": "70113",
    "platform_name": "Boston College",
    "longitude": -71.153025,
    "latitude": 42.33829,
    "parent_station": "place-chill",
    "name": "Chestnut Hill Avenue",
    "platform_colors": [
      "00843D"
    ],
    "station_colors": [
      "00843D"
    ]
  },
  {
    "id": "70128",
    "platform_name": "Park Street & North",
    "longitude": -71.1345,
    "latitude": 42.348747,
    "parent_station": "place-grigg",
    "name": "Griggs Street",
    "platform_colors": [
      "00843D"
    ],
    "station_colors": [
      "00843D"
    ]
  },
  {
    "id": "70269",
    "platform_name": "Mattapan",
    "longitude": -71.073523,
    "latitude": 42.270054,
    "parent_station": "place-cenav",
    "name": "Central Avenue",
    "platform_colors": [
      "DA291C"
    ],
    "station_colors": [
      "DA291C"
    ]
  },
  {
    "id": "70134",
    "platform_name": "Park Street & North",
    "longitude": -71.125067,
    "latitude": 42.351891,
    "parent_station": "place-brico",
    "name": "Packard's Corner",
    "platform_colors": [
      "00843D"
    ],
    "station_colors": [
      "00843D"
    ]
  },
  {
    "id": "70502",
    "platform_name": "Copley & West",
    "longitude": -71.07586,
    "latitude": 42.370989,
    "parent_station": "place-lech",
    "name": "Lechmere",
    "platform_colors": [
      "00843D"
    ],
    "station_colors": [
      "00843D"
    ]
  },
  {
    "id": "70152",
    "platform_name": "Park Street & North",
    "longitude": -71.087903,
    "latitude": 42.347888,
    "parent_station": "place-hymnl",
    "name": "Hynes Convention Center",
    "platform_colors": [
      "00843D"
    ],
    "station_colors": [
      "00843D"
    ]
  },
  {
    "id": "70273",
    "platform_name": "Mattapan",
    "longitude": -71.087139,
    "latitude": 42.267589,
    "parent_station": "place-capst",
    "name": "Capen Street",
    "platform_colors": [
      "DA291C"
    ],
    "station_colors": [
      "DA291C"
    ]
  },
  {
    "id": "70229",
    "platform_name": "Cleveland Circle",
    "longitude": -71.135139,
    "latitude": 42.339471,
    "parent_station": "place-bcnwa",
    "name": "Washington Square",
    "platform_colors": [
      "00843D"
    ],
    "station_colors": [
      "00843D"
    ]
  },
  {
    "id": "70027",
    "platform_name": "Oak Grove",
    "longitude": -71.060205,
    "latitude": 42.36528,
    "parent_station": "place-north",
    "name": "North Station",
    "platform_colors": [
      "ED8B00"
    ],
    "station_colors": [
      "00843D",
      "ED8B00"
    ]
  },
  {
    "id": "70227",
    "platform_name": "Cleveland Circle",
    "longitude": -71.131228,
    "latitude": 42.33969,
    "parent_station": "place-fbkst",
    "name": "Fairbanks Street",
    "platform_colors": [
      "00843D"
    ],
    "station_colors": [
      "00843D"
    ]
  },
  {
    "id": "70158",
    "platform_name": "Park Street & North",
    "longitude": -71.064682,
    "latitude": 42.352531,
    "parent_station": "place-boyls",
    "name": "Boylston",
    "platform_colors": [
      "00843D"
    ],
    "station_colors": [
      "00843D"
    ]
  },
  {
    "id": "70226",
    "platform_name": "Park Street & North",
    "longitude": -71.12866,
    "latitude": 42.340038,
    "parent_station": "place-bndhl",
    "name": "Brandon Hall",
    "platform_colors": [
      "00843D"
    ],
    "station_colors": [
      "00843D"
    ]
  }
]
